0.383794:*Ó5
$GPGGA,084037,2727.9487,S,15305.3408,E,1,07,02.0,-00000.9,M,039.4,M,,*77
0.128035:$GPGSA,A,3,07,08,11,13,17,27,28,,,,,,05.3,02.0,04.8*0E
0.124066:$GPGSV,3,1,11,07,48,103,40,08,58,171,49,11,22,075,41,13,26,021,43*7C
0.187903:$GPGSV,3,2,11,15,00,215,00,17,33,345,50,27,57,116,45,28,56,245,51*75
0.060003:$GPGSV,3,3,11,25,,,38,19,,,41,47,,,00,,,,*7B
0.324069:$GPRMC,084037,A,2727.9487,S,15305.3408,E,000.0,086.0,231108,,,A*6D
0.187964:$GPGGA,084038,2727.9487,S,15305.3408,E,1,07,02.0,-00000.9,M,039.4,M,,*78
0.127969:$GPGSA,A,3,07,08,11,13,17,27,28,,,,,,05.3,02.0,04.8*0E
0.123977:$GPGSV,3,1,11,07,48,103,40,08,58,171,50,11,22,075,41,13,26,021,43*74
0.124012:$GPGSV,3,2,11,15,00,215,00,17,33,345,50,27,57,116,45,28,56,245,51*75
0.124039:$GPGSV,3,3,11,25,,,35,19,,,40,47,,,00,,,,*77
0.331998:$GPRMC,084038,A,2727.9487,S,15305.3408,E,000.0,086.0,231108,,,A*62
0.187999:$GPGGA,084039,2727.9487,S,15305.3408,E,1,07,02.0,-00000.9,M,039.4,M,,*79
0.127968:$GPGSA,A,3,07,08,11,13,17,27,28,,,,,,05.3,02.0,04.8*0E
0.123984:$GPGSV,3,1,11,07,48,103,41,08,58,171,49,11,22,075,41,13,26,021,43*7D
0.124017:$GPGSV,3,2,11,15,00,215,00,17,33,345,50,27,57,116,45,28,56,245,51*75
0.124043:$GPGSV,3,3,11,25,,,40,19,,,41,47,,,00,,,,*74
0.307961:$GPRMC,084039,A,2727.9487,S,15305.3408,E,000.0,086.0,231108,,,A*63
0.127998:$GPGGA,084040,2727.9487,S,15305.3408,E,1,07,02.0,-00000.9,M,039.4,M,,*77
0.124028:$GPGSA,A,3,07,08,11,13,17,27,28,,,,,,05.3,02.0,04.8*0E
0.187999:$GPGSV,3,1,11,07,48,103,39,08,58,171,49,11,22,075,39,13,26,021,42*7C
0.123955:$GPGSV,3,2,11,15,00,215,00,17,33,345,49,27,57,116,43,28,56,245,50*7A
0.124057:$GPGSV,3,3,11,25,,,41,19,,,39,47,,,00,,,,*7A
0.335953:$GPRMC,084040,A,2727.9487,S,15305.3408,E,000.0,086.0,231108,,,A*6D
0.123997:$GPGGA,084041,2727.9487,S,15305.3408,E,1,07,02.0,-00000.9,M,039.4,M,,*76
0.124048:$GPGSA,A,3,07,08,11,13,17,27,28,,,,,,05.3,02.0,04.8*0E
0.127958:$GPGSV,3,1,11,07,48,103,39,08,58,171,49,11,22,075,41,13,26,021,43*72
0.188005:$GPGSV,3,2,11,15,00,215,00,17,33,345,49,27,57,116,43,28,56,245,50*7A
0.059998:$GPGSV,3,3,11,25,,,43,19,,,36,47,,,00,,,,*77
0.388010:$GPRMC,084041,A,2727.9487,S,15305.3408,E,000.0,086.0,231108,,,A*6C
0.123982:$GPGGA,084042,2727.9487,S,15305.3408,E,1,07,02.0,-00000.9,M,039.4,M,,*75
0.124043:$GPGSA,A,3,07,08,11,13,17,27,28,,,,,,05.3,02.0,04.8*0E
0.128097:$GPGSV,3,1,11,07,48,103,37,08,58,171,48,11,22,075,41,13,26,021,44*7A
0.187869:$GPGSV,3,2,11,15,00,215,00,17,33,345,49,27,57,116,43,28,56,245,51*7B
0.059997:$GPGSV,3,3,11,25,,,42,19,,,37,47,,,00,,,,*77
0.324034:$GPRMC,084042,A,2727.9487,S,15305.3408,E,000.0,086.0,231108,,,A*6F
0.187966:$GPGGA,084043,2727.9487,S,15305.3408,E,1,07,02.0,-00000.9,M,039.4,M,,*74
0.124034:$GPGSA,A,3,07,08,11,13,17,27,28,,,,,,05.3,02.0,04.8*0E
0.127955:$GPGSV,3,1,11,07,48,103,38,08,58,171,48,11,22,075,39,13,26,021,45*7B
0.123998:$GPGSV,3,2,11,15,00,215,00,17,33,345,50,27,57,116,42,28,56,245,51*72
0.124055:$GPGSV,3,3,11,25,,,42,19,,,36,47,,,00,,,,*76
0.327998:$GPRMC,084043,A,2727.9487,S,15305.3408,E,000.0,086.0,231108,,,A*6E
0.187968:$GPGGA,084044,2727.9487,S,15305.3416,E,1,07,02.0,-00000.9,M,039.4,M,,*7C
0.124127:$GPGSA,A,3,07,08,11,13,17,27,28,,,,,,05.3,02.0,04.8*0E
0.123860:$GPGSV,3,1,10,07,48,103,35,08,58,171,50,11,22,075,39,13,26,021,45*7E
0.127957:$GPGSV,3,2,10,15,00,215,00,17,33,345,50,27,57,116,42,28,56,245,50*72
0.124047:$GPGSV,3,3,10,25,,,42,19,,,36,,,,,,,,*74
0.332009:$GPRMC,084044,A,2727.9487,S,15305.3416,E,002.1,090.3,231108,,,A*61
0.127987:$GPGGA,084045,2727.9489,S,15305.3426,E,1,07,02.0,-00000.9,M,039.4,M,,*70
0.124002:$GPGSA,A,3,07,08,11,13,17,27,28,,,,,,05.3,02.0,04.8*0E
0.184268:$GPGSV,3,1,10,07,48,103,45,08,58,171,50,11,22,075,46,13,26,021,34*77
0.127727:$GPGSV,3,2,10,15,00,215,00,17,33,345,49,27,57,116,46,28,56,245,48*77
0.060043:$GPGSV,3,3,10,25,,,41,19,,,43,,,,,,,,*75
0.387973:$GPRMC,084045,A,2727.9489,S,15305.3426,E,002.7,109.0,231108,,,A*69
0.124008:$GPGGA,084046,2727.9498,S,15305.3434,E,1,07,02.0,-00001.0,M,039.4,M,,*78
0.124018:$GPGSA,A,3,07,08,11,13,17,27,28,,,,,,05.3,02.0,04.8*0E
0.127967:$GPGSV,3,1,10,07,48,103,47,08,58,171,48,11,22,075,41,13,26,021,36*79
0.188003:$GPGSV,3,2,10,15,00,215,00,17,33,345,43,27,57,116,46,28,56,245,50*74
0.060035:$GPGSV,3,3,10,25,,,41,19,,,41,,,,,,,,*77
0.343969:$GPRMC,084046,A,2727.9498,S,15305.3434,E,003.9,144.3,231108,,,A*6C
0.188023:$GPGGA,084047,2727.9512,S,15305.3444,E,1,07,02.0,-00001.0,M,039.4,M,,*7D
0.124072:$GPGSA,A,3,07,08,11,13,17,27,28,,,,,,05.3,02.0,04.8*0E
0.123899:$GPGSV,3,1,11,07,48,103,46,08,58,171,46,11,22,075,37,13,26,021,46*71
0.128037:$GPGSV,3,2,11,15,00,215,00,17,33,345,47,27,57,116,49,28,56,245,48*77
0.123967:$GPGSV,3,3,11,25,,,42,19,,,42,47,,,00,,,,*75
0.324099:$GPRMC,084047,A,2727.9512,S,15305.3444,E,005.8,161.0,231108,,,A*6A
0.123894:$GPGGA,084048,2727.9531,S,15305.3447,E,1,07,02.0,-00001.0,M,039.4,M,,*70
0.123999:$GPGSA,A,3,07,08,11,13,17,27,28,,,,,,05.3,02.0,04.8*0E
0.188010:$GPGSV,3,1,11,07,48,103,46,08,58,171,47,11,22,075,36,13,26,021,45*72
0.124029:$GPGSV,3,2,11,15,00,215,00,17,33,345,46,27,57,116,36,28,56,245,49*7F
0.127959:$GPGSV,3,3,11,25,,,38,19,,,37,47,,,00,,,,*7A
0.323992:$GPRMC,084048,A,2727.9531,S,15305.3447,E,007.4,184.6,231108,,,A*64
0.124115:$GPGGA,084049,2727.9550,S,15305.3439,E,1,07,02.0,-00001.2,M,039.4,M,,*7D
0.127896:$GPGSA,A,3,07,08,11,13,17,27,28,,,,,,05.2,02.0,04.8*0F
0.124043:$GPGSV,3,1,11,07,48,103,45,08,58,171,46,11,22,075,44,13,26,021,36*71
0.187956:$GPGSV,3,2,11,15,00,215,00,17,34,345,43,27,57,116,46,28,56,245,45*76
0.060044:$GPGSV,3,3,11,25,,,46,19,,,39,47,,,00,,,,*7D
0.389676:$GPRMC,084049,A,2727.9550,S,15305.3439,E,008.4,208.4,231108,,,A*61
0.123362:$GPGGA,084050,2727.9565,S,15305.3423,E,1,07,02.0,-00001.3,M,039.4,M,,*79
0.122952:$GPGSA,A,3,07,08,11,13,17,27,28,,,,,,05.2,02.0,04.8*0F
0.128108:$GPGSV,3,1,11,07,48,103,38,08,58,171,47,11,22,075,35,13,26,021,39*73
0.185561:$GPGSV,3,2,11,15,00,215,00,17,34,345,40,27,57,116,42,28,56,245,45*71
0.062339:$GPGSV,3,3,11,25,,,43,19,,,33,47,,,00,,,,*72
0.327968:$GPRMC,084050,A,2727.9565,S,15305.3423,E,008.7,228.3,231108,,,A*62
0.187990:$GPGGA,084051,2727.9577,S,15305.3404,E,1,07,02.0,-00001.4,M,039.4,M,,*79
0.124779:$GPGSA,A,3,07,08,11,13,17,27,28,,,,,,05.2,02.0,04.8*0F
0.123211:$GPGSV,3,1,11,07,48,103,42,08,58,171,42,11,22,075,37,13,26,021,38*78
0.124048:$GPGSV,3,2,11,15,00,215,00,17,34,345,36,27,57,116,44,28,56,245,47*74
0.127963:$GPGSV,3,3,11,25,,,41,19,,,33,47,,,00,,,,*70
0.312053:$GPRMC,084051,A,2727.9577,S,15305.3404,E,008.5,237.4,231108,,,A*6E
0.187973:$GPGGA,084052,2727.9590,S,15305.3388,E,1,07,02.0,-00001.4,M,039.4,M,,*70
0.124018:$GPGSA,A,3,07,08,11,13,17,27,28,,,,,,05.2,02.0,04.8*0F
0.128000:$GPGSV,3,1,11,07,48,103,37,08,58,171,46,11,22,075,36,13,26,021,40*70
0.123981:$GPGSV,3,2,11,15,00,215,00,17,34,345,42,27,57,116,41,28,56,245,45*70
0.124013:$GPGSV,3,3,11,25,,,42,19,,,33,47,,,00,,,,*73
0.336104:$GPRMC,084052,A,2727.9590,S,15305.3388,E,008.1,230.3,231108,,,A*63
0.123863:$GPGGA,084053,2727.9609,S,15305.3380,E,1,07,02.0,-00001.3,M,039.4,M,,*7D
0.124026:$GPGSA,A,3,07,08,11,13,17,27,28,,,,,,05.2,02.0,04.8*0F
0.187972:$GPGSV,3,1,11,07,48,103,40,08,58,171,42,11,22,075,45,13,26,021,38*7F
0.127994:$GPGSV,3,2,11,15,00,215,00,17,34,345,41,27,57,116,46,28,56,245,46*77
0.124011:$GPGSV,3,3,11,25,,,43,19,,,35,47,,,00,,,,*74
0.323987:$GPRMC,084053,A,2727.9609,S,15305.3380,E,008.1,206.4,231108,,,A*6B
0.124007:$GPGGA,084054,2727.9630,S,15305.3382,E,1,06,03.3,-00001.4,M,039.4,M,,*76
0.124031:$GPGSA,A,3,07,08,13,17,27,28,,,,,,,11.1,03.3,10.6*00
0.127988:$GPGSV,3,1,11,07,48,103,47,08,58,171,47,11,22,075,34,13,26,021,36*75
0.187981:$GPGSV,3,2,11,15,00,215,00,17,34,345,42,27,57,116,42,28,56,245,41*77
0.060006:$GPGSV,3,3,11,25,,,40,19,,,35,47,,,00,,,,*77
0.391994:$GPRMC,084054,A,2727.9630,S,15305.3382,E,007.4,181.5,231108,,,A*63
0.128009:$GPGGA,084055,2727.9648,S,15305.3389,E,1,07,02.0,-00001.3,M,039.4,M,,*77
0.124035:$GPGSA,A,3,07,08,11,13,17,27,28,,,,,,05.2,02.0,04.8*0F
0.123963:$GPGSV,3,1,11,07,48,103,47,08,58,171,47,11,22,075,31,13,26,021,43*72
0.187975:$GPGSV,3,2,11,15,00,215,00,17,34,345,42,27,57,116,45,28,56,245,47*76
0.064011:$GPGSV,3,3,11,25,,,35,19,,,34,47,,,00,,,,*74
0.320012:$GPRMC,084055,A,2727.9648,S,15305.3389,E,007.3,162.2,231108,,,A*6B
0.188012:$GPGGA,084056,2727.9659,S,15305.3404,E,1,07,02.0,-00001.2,M,039.4,M,,*77
0.124022:$GPGSA,A,3,07,08,11,13,17,27,28,,,,,,05.2,02.0,04.8*0F
0.127999:$GPGSV,3,1,10,07,48,103,44,08,58,171,45,11,22,075,35,13,26,021,42*77
0.123956:$GPGSV,3,2,10,15,00,215,00,17,34,345,41,27,57,116,44,28,56,245,47*75
0.124007:$GPGSV,3,3,10,25,,,37,19,,,39,,,,,,,,*79
0.336104:$GPRMC,084056,A,2727.9659,S,15305.3404,E,006.1,131.8,231108,,,A*65
0.123891:$GPGGA,084057,2727.9663,S,15305.3422,E,1,07,02.0,-00001.0,M,039.4,M,,*79
0.127992:$GPGSA,A,3,07,08,11,13,17,27,28,,,,,,05.2,02.0,04.8*0F
0.188011:$GPGSV,3,1,10,07,48,103,44,08,58,171,41,11,22,075,34,13,26,021,32*75
0.124008:$GPGSV,3,2,10,15,00,215,00,17,34,345,43,27,57,116,49,28,56,245,51*7D
0.059986:$GPGSV,3,3,10,25,,,36,19,,,45,,,,,,,,*73
0.387999:$GPRMC,084057,A,2727.9663,S,15305.3422,E,006.0,131.8,231108,,,A*68
0.124030:$GPGGA,084058,2727.9662,S,15305.3446,E,1,07,02.0,-00001.0,M,039.4,M,,*75
0.128012:$GPGSA,A,3,07,08,11,13,17,27,28,,,,,,05.2,02.0,04.8*0F
0.123965:$GPGSV,3,1,10,07,48,103,46,08,58,171,39,11,22,075,35,13,26,021,35*7E
0.188001:$GPGSV,3,2,10,15,00,215,00,17,34,345,41,27,57,116,45,28,56,245,51*73
0.060004:$GPGSV,3,3,10,25,,,39,19,,,39,,,,,,,,*77
0.345940:$GPRMC,084058,A,2727.9662,S,15305.3446,E,007.2,092.5,231108,,,A*62
0.182088:$GPGGA,084059,2727.9659,S,15305.3470,E,1,07,02.0,-00000.9,M,039.4,M,,*71
0.127952:$GPGSA,A,3,07,08,11,13,17,27,28,,,,,,05.2,02.0,04.8*0F
0.124033:$GPGSV,3,1,11,07,48,103,46,08,58,171,45,11,22,075,39,13,26,021,41*7B
0.124027:$GPGSV,3,2,11,15,00,215,00,17,34,345,41,27,57,116,45,28,56,245,46*74
0.127959:$GPGSV,3,3,11,25,,,36,19,,,35,47,,,00,,,,*76
0.323982:$GPRMC,084059,A,2727.9659,S,15305.3470,E,007.8,083.6,231108,,,A*67
0.188030:$GPGGA,084100,2727.9655,S,15305.3492,E,1,07,02.0,-00000.7,M,039.4,M,,*72
0.059991:$GPGSA,A,3,07,08,11,13,17,27,28,,,,,,05.2,02.0,04.8*0F
0.187991:$GPGSV,3,1,11,07,48,103,45,08,58,171,46,11,22,075,37,13,26,021,36*75
0.127994:$GPGSV,3,2,11,15,00,215,00,17,34,345,37,27,57,116,38,28,56,245,42*7B
0.124015:$GPGSV,3,3,11,25,,,38,19,,,40,47,,,00,,,,*7A
0.323999:$GPRMC,084100,A,2727.9655,S,15305.3492,E,006.8,074.8,231108,,,A*6D
0.123995:$GPGGA,084101,2727.9651,S,15305.3507,E,1,07,02.0,-00000.6,M,039.4,M,,*7B
0.123983:$GPGSA,A,3,07,08,11,13,17,27,28,,,,,,05.2,02.0,04.8*0F
0.188014:$GPGSV,3,1,11,07,48,103,46,08,58,171,42,11,22,075,42,13,26,021,39*7F
0.124033:$GPGSV,3,2,11,15,00,215,00,17,34,345,47,27,57,115,41,28,56,245,43*70
0.063962:$GPGSV,3,3,11,25,,,37,19,,,41,47,,,00,,,,*74
0.388018:$GPRMC,084101,A,2727.9651,S,15305.3507,E,004.7,069.8,231108,,,A*64
0.123990:$GPGGA,084102,2727.9643,S,15305.3526,E,1,07,02.0,-00000.5,M,039.4,M,,*7B
0.124007:$GPGSA,A,3,07,08,11,13,17,27,28,,,,,,05.2,02.0,04.8*0F
0.128000:$GPGSV,3,1,11,07,48,103,43,08,58,171,42,11,22,075,43,13,26,021,34*76
0.187994:$GPGSV,3,2,11,15,00,215,00,17,34,345,45,27,57,115,41,28,56,245,44*75
0.060022:$GPGSV,3,3,11,25,,,41,19,,,36,47,,,00,,,,*75
0.387973:$GPRMC,084102,A,2727.9643,S,15305.3526,E,006.3,062.5,231108,,,A*67
0.124009:$GPGGA,084103,2727.9632,S,15305.3548,E,1,07,02.0,-00000.5,M,039.4,M,,*74
0.124030:$GPGSA,A,3,07,08,11,13,17,27,28,,,,,,05.2,02.0,04.8*0F
0.127965:$GPGSV,3,1,11,07,48,103,42,08,58,171,45,11,22,075,42,13,26,021,43*71
0.187990:$GPGSV,3,2,11,15,00,215,00,17,34,345,40,27,57,115,41,28,56,245,42*76
0.064009:$GPGSV,3,3,11,25,,,40,19,,,30,47,,,00,,,,*72
0.319999:$GPRMC,084103,A,2727.9632,S,15305.3548,E,007.9,060.1,231108,,,A*65
0.184041:$GPGGA,084104,2727.9622,S,15305.3574,E,1,07,02.0,-00000.6,M,039.4,M,,*7E
0.127964:$GPGSA,A,3,07,08,11,13,17,27,28,,,,,,05.2,02.0,04.8*0F
0.123981:$GPGSV,3,1,11,07,48,102,43,08,58,171,43,11,22,075,43,13,26,021,37*75
0.124010:$GPGSV,3,2,11,15,00,215,00,17,34,345,41,27,57,115,41,28,56,245,42*77
0.124037:$GPGSV,3,3,11,25,,,42,19,,,32,47,,,00,,,,*72
0.331978:$GPRMC,084104,A,2727.9622,S,15305.3574,E,008.7,066.4,231108,,,A*6E
0.183997:$GPGGA,084105,2727.9618,S,15305.3606,E,1,07,02.0,-00000.7,M,039.4,M,,*71
0.063983:$GPGSA,A,3,07,08,11,13,17,27,28,,,,,,05.2,02.0,04.8*0F
0.188014:$GPGSV,3,1,11,07,48,102,45,08,58,171,46,11,22,075,41,13,26,021,39*7A
0.124030:$GPGSV,3,2,11,15,00,215,00,17,34,345,40,27,57,115,42,28,56,245,43*74
0.127966:$GPGSV,3,3,11,25,,,39,19,,,35,47,,,00,,,,*79
0.324040:$GPRMC,084105,A,2727.9618,S,15305.3606,E,010.4,081.2,231108,,,A*65
0.123957:$GPGGA,084106,2727.9624,S,15305.3644,E,1,07,02.0,-00000.7,M,039.4,M,,*7B
0.124033:$GPGSA,A,3,07,08,11,13,17,27,28,,,,,,05.2,02.0,04.8*0F
0.188018:$GPGSV,3,1,11,07,48,102,45,08,58,171,44,11,22,075,40,13,26,021,36*76
0.127951:$GPGSV,3,2,11,15,00,215,00,17,34,345,43,27,57,115,46,28,56,245,49*79
0.063987:$GPGSV,3,3,11,25,,,41,19,,,41,47,,,00,,,,*75
0.383997:$GPRMC,084106,A,2727.9624,S,15305.3644,E,012.3,100.9,231108,,,A*69
0.124011:$GPGGA,084107,2727.9638,S,15305.3688,E,1,07,02.0,-00000.7,M,039.4,M,,*77
0.124019:$GPGSA,A,3,07,08,11,13,17,27,28,,,,,,05.2,02.0,04.8*0F
0.127994:$GPGSV,3,1,11,07,48,102,44,08,58,171,37,11,22,075,43,13,26,021,34*72
0.187989:$GPGSV,3,2,11,15,00,215,00,17,34,345,43,27,57,115,46,28,56,245,50*71
0.060005:$GPGSV,3,3,11,25,,,39,19,,,46,47,,,00,,,,*7D
0.388037:$GPRMC,084107,A,2727.9638,S,15305.3688,E,015.0,109.6,231108,,,A*67
0.125075:$GPGGA,084108,2727.9652,S,15305.3740,E,1,07,02.0,-00000.7,M,039.4,M,,*71
0.122925:$GPGSA,A,3,07,08,11,13,17,27,28,,,,,,05.2,02.0,04.8*0F
0.127964:$GPGSV,3,1,10,07,48,102,44,08,58,171,34,11,22,075,42,13,26,021,33*76
0.188016:$GPGSV,3,2,10,15,00,215,00,17,34,345,44,27,57,115,46,28,56,245,50*77
0.059967:$GPGSV,3,3,10,25,,,40,19,,,42,,,,,,,,*75
0.336071:$GPRMC,084108,A,2727.9652,S,15305.3740,E,017.4,108.0,231108,,,A*60
0.188006:$GPGGA,084109,2727.9664,S,15305.3795,E,1,07,02.0,-00000.6,M,039.4,M,,*7C
0.124068:$GPGSA,A,3,07,08,11,13,17,27,28,,,,,,05.2,02.0,04.8*0F
0.123868:$GPGSV,3,1,10,07,48,102,44,08,58,171,46,11,22,075,41,13,26,021,32*71
0.128030:$GPGSV,3,2,10,15,00,215,00,17,34,345,46,27,57,115,45,28,56,245,48*7F
0.123966:$GPGSV,3,3,10,25,,,43,19,,,43,,,,,,,,*77
0.324127:$GPRMC,084109,A,2727.9664,S,15305.3795,E,018.4,102.6,231108,,,A*6F
0.123880:$GPGGA,084110,2727.9673,S,15305.3855,E,1,07,02.0,-00000.5,M,039.4,M,,*72
0.124000:$GPGSA,A,3,07,08,11,13,17,27,28,,,,,,05.2,02.0,04.8*0F
0.187994:$GPGSV,3,1,10,07,48,102,45,08,58,171,48,11,22,075,40,13,26,021,33*7E
0.128012:$GPGSV,3,2,10,15,00,215,00,17,34,345,42,27,57,115,45,28,56,245,45*76
0.059994:$GPGSV,3,3,10,25,,,36,19,,,42,,,,,,,,*74
0.406144:$GPRMC,084110,A,2727.9673,S,15305.3855,E,019.4,098.6,231108,,,A*61
0.121890:$GPGGA,084111,2727.9680,S,15305.3916,E,1,07,02.0,-00000.3,M,039.4,M,,*7F
0.127959:$GPGSA,A,3,07,08,11,13,17,27,28,,,,,,05.2,02.0,04.8*0F
0.124009:$GPGSV,3,1,11,07,48,102,45,08,58,171,48,11,22,075,40,13,26,021,35*79
0.187983:$GPGSV,3,2,11,15,00,215,00,17,34,345,43,27,57,115,46,28,57,245,45*74
0.064006:$GPGSV,3,3,11,25,,,36,19,,,42,47,,,00,,,,*76
0.324008:$GPRMC,084111,A,2727.9680,S,15305.3916,E,019.9,098.4,231108,,,A*65
0.184034:$GPGGA,084112,2727.9686,S,15305.3977,E,1,07,02.0,-00000.2,M,039.4,M,,*7C
0.127955:$GPGSA,A,3,07,08,11,13,17,27,28,,,,,,05.2,02.0,04.8*0F
0.124004:$GPGSV,3,1,11,07,48,102,43,08,58,171,48,11,22,075,34,13,26,021,34*7D
0.128013:$GPGSV,3,2,11,15,00,215,00,17,34,345,42,27,57,115,45,28,57,245,46*75
0.123990:$GPGSV,3,3,11,25,,,36,19,,,36,47,,,00,,,,*75
0.324013:$GPRMC,084112,A,2727.9686,S,15305.3977,E,019.1,096.6,231108,,,A*63
0.183995:$GPGGA,084113,2727.9689,S,15305.4027,E,1,07,02.0,-00000.2,M,039.4,M,,*79
0.063995:$GPGSA,A,3,07,08,11,13,17,27,28,,,,,,05.2,02.0,04.8*0F
0.187996:$GPGSV,3,1,11,07,48,102,44,08,58,171,49,11,22,075,38,13,26,021,41*75
0.124050:$GPGSV,3,2,11,15,00,215,00,17,34,345,39,27,57,115,45,28,57,245,45*7A
0.127953:$GPGSV,3,3,11,25,,,37,19,,,32,47,,,00,,,,*70
0.331994:$GPRMC,084113,A,2727.9689,S,15305.4027,E,015.9,092.9,231108,,,A*69
0.124008:$GPGGA,084114,2727.9684,S,15305.4073,E,1,07,02.0,-00000.4,M,039.4,M,,*74
0.124004:$GPGSA,A,3,07,08,11,13,17,27,28,,,,,,05.2,02.0,04.8*0F
0.187991:$GPGSV,3,1,11,07,48,102,45,08,58,171,46,11,22,075,40,13,26,021,41*74
0.128007:$GPGSV,3,2,11,15,00,215,00,17,34,345,41,27,57,115,42,28,57,245,42*75
0.059994:$GPGSV,3,3,11,25,,,39,19,,,40,47,,,00,,,,*7B
0.380018:$GPRMC,084114,A,2727.9684,S,15305.4073,E,014.2,081.3,231108,,,A*60
0.123980:$GPGGA,084115,2727.9666,S,15305.4110,E,1,07,02.0,-00000.6,M,039.4,M,,*7F
0.124019:$GPGSA,A,3,07,08,11,13,17,27,28,,,,,,05.2,02.0,04.8*0F
0.127992:$GPGSV,3,1,11,07,48,102,47,08,58,171,50,11,22,075,40,13,26,021,40*70
0.187993:$GPGSV,3,2,11,15,00,215,00,17,34,345,46,27,57,115,50,28,57,245,44*77
0.060003:$GPGSV,3,3,11,25,,,45,19,,,43,47,,,00,,,,*73
0.380003:$GPRMC,084115,A,2727.9666,S,15305.4110,E,013.2,060.1,231108,,,A*63
0.123987:$GPGGA,084116,2727.9639,S,15305.4143,E,1,07,02.0,-00000.8,M,039.4,M,,*7E
0.124016:$GPGSA,A,3,07,08,11,13,17,27,28,,,,,,05.2,02.0,04.8*0F
0.127991:$GPGSV,3,1,11,07,48,102,50,08,58,171,48,11,22,075,34,13,26,021,46*7A
0.188017:$GPGSV,3,2,11,15,00,215,00,17,34,345,47,27,57,115,50,28,57,245,39*7C
0.059977:$GPGSV,3,3,11,25,,,37,19,,,43,47,,,00,,,,*76
0.336049:$GPRMC,084116,A,2727.9639,S,15305.4143,E,014.2,044.5,231108,,,A*69
0.184021:$GPGGA,084117,2727.9609,S,15305.4178,E,1,07,02.0,-00001.1,M,039.4,M,,*7C
0.127918:$GPGSA,A,3,07,08,11,13,17,27,28,,,,,,05.2,02.0,04.8*0F
0.124024:$GPGSV,3,1,11,07,48,102,50,08,58,171,51,11,22,075,36,13,26,021,46*70
0.123987:$GPGSV,3,2,11,15,00,215,00,17,34,345,48,27,57,115,49,28,57,244,45*71
0.124012:$GPGSV,3,3,11,25,,,42,19,,,44,47,,,00,,,,*73
0.327989:$GPRMC,084117,A,2727.9609,S,15305.4178,E,015.7,044.7,231108,,,A*65
0.184019:$GPGGA,084118,2727.9585,S,15305.4223,E,1,07,02.0,-00001.6,M,039.4,M,,*7E
0.063991:$GPGSA,A,3,07,08,11,13,17,27,28,,,,,,05.2,02.0,04.8*0F
0.187999:$GPGSV,3,1,11,07,48,102,47,08,58,171,51,11,22,075,47,13,26,021,39*78
0.128010:$GPGSV,3,2,11,15,00,215,00,17,34,345,46,27,57,115,49,28,57,244,45*7F
0.123990:$GPGSV,3,3,11,25,,,47,19,,,46,47,,,00,,,,*74
0.323998:$GPRMC,084118,A,2727.9585,S,15305.4223,E,016.6,058.2,231108,,,A*6A
0.123990:$GPGGA,084118,2727.9572,S,15305.4279,E,1,07,02.0,-00002.4,M,039.4,M,,*78
0.128059:$GPGSA,A,3,07,08,11,13,17,27,28,,,,,,05.2,02.0,04.8*0F
0.183944:$GPGSV,3,1,11,07,48,102,48,08,58,171,49,11,22,075,45,13,26,021,41*73
0.124009:$GPGSV,3,2,11,15,00,215,00,17,34,345,46,27,57,115,46,28,57,244,44*71
0.063957:$GPGSV,3,3,11,25,,,46,19,,,38,47,,,00,,,,*7C
0.388953:$GPRMC,084118,A,2727.9572,S,15305.4279,E,018.8,076.6,231108,,,A*65
0.123094:$GPGGA,084119,2727.9571,S,15305.4348,E,1,07,02.0,-00002.7,M,039.4,M,,*7A
0.123987:$GPGSA,A,3,07,08,11,13,17,27,28,,,,,,05.2,02.0,04.8*0F
0.127991:$GPGSV,3,1,10,07,48,102,49,08,58,171,50,11,23,075,43,13,26,021,43*7E
0.184028:$GPGSV,3,2,10,15,00,215,00,17,34,345,47,27,57,115,50,28,57,244,46*74
0.063993:$GPGSV,3,3,10,25,,,42,19,,,36,,,,,,,,*74
0.336003:$GPRMC,084119,A,2727.9571,S,15305.4348,E,022.1,090.7,231108,,,A*6D
0.184027:$GPGGA,084120,2727.9577,S,15305.4426,E,1,07,02.0,-00002.9,M,039.4,M,,*77
0.127968:$GPGSA,A,3,07,08,11,13,17,27,28,,,,,,05.2,02.0,04.8*0F
0.123983:$GPGSV,3,1,10,07,48,102,49,08,58,171,50,11,23,075,42,13,26,021,43*7F
0.124029:$GPGSV,3,2,10,15,00,215,00,17,34,345,49,27,57,115,51,28,57,244,46*7B
0.127984:$GPGSV,3,3,10,25,,,49,19,,,29,,,,,,,,*71
0.325038:$GPRMC,084120,A,2727.9577,S,15305.4426,E,025.1,096.5,231108,,,A*6D
0.186962:$GPGGA,084121,2727.9587,S,15305.4507,E,1,07,02.0,-00003.0,M,039.4,M,,*73
0.060000:$GPGSA,A,3,07,08,11,13,17,27,28,,,,,,05.2,02.0,04.8*0F
0.187999:$GPGSV,3,1,10,07,48,102,50,08,58,171,51,11,23,075,44,13,26,021,41*72
0.127995:$GPGSV,3,2,10,15,00,215,00,17,34,345,50,27,57,115,52,28,57,244,46*70
0.059991:$GPGSV,3,3,10,25,,,50,19,,,00,,,,,,,,*72
0.404019:$GPRMC,084121,A,2727.9587,S,15305.4507,E,025.9,098.9,231108,,,A*6B
0.124079:$GPGGA,084122,2727.9598,S,15305.4589,E,1,07,02.0,-00003.0,M,039.4,M,,*78
0.127923:$GPGSA,A,3,07,08,11,13,17,27,28,,,,,,05.2,02.0,04.8*0F
0.124031:$GPGSV,3,1,11,07,48,102,50,08,58,171,51,11,23,075,43,13,26,021,41*74
0.187975:$GPGSV,3,2,11,15,00,215,00,17,34,345,50,27,57,115,52,28,57,244,46*71
0.059996:$GPGSV,3,3,11,25,,,50,19,,,00,47,,,00,,,,*70
0.392028:$GPRMC,084122,A,2727.9598,S,15305.4589,E,026.6,100.1,231108,,,A*64
0.123971:$GPGGA,084123,2727.9612,S,15305.4673,E,1,07,02.0,-00003.0,M,039.4,M,,*7E
0.124007:$GPGSA,A,3,07,08,11,13,17,27,28,,,,,,05.2,02.0,04.8*0F
0.128298:$GPGSV,3,1,11,07,48,102,50,08,58,171,51,11,23,075,42,13,26,021,41*75
0.187695:$GPGSV,3,2,11,15,00,215,00,17,34,345,49,27,57,115,52,28,57,244,46*79
0.059995:$GPGSV,3,3,11,25,,,50,19,,,30,47,,,00,,,,*73
0.320001:$GPRMC,084123,A,2727.9612,S,15305.4673,E,027.0,100.7,231108,,,A*63
0.187997:$GPGGA,084124,2727.9630,S,15305.4756,E,1,07,02.0,-00003.0,M,039.4,M,,*7F
0.127983:$GPGSA,A,3,07,08,11,13,17,27,28,,,,,,05.2,02.0,04.8*0F
0.124055:$GPGSV,3,1,11,07,48,102,49,08,58,171,50,11,23,075,43,13,26,021,39*72
0.123953:$GPGSV,3,2,11,15,00,215,00,17,34,345,47,27,57,115,52,28,57,244,48*79
0.124018:$GPGSV,3,3,11,25,,,49,19,,,34,47,,,00,,,,*7F
0.327979:$GPRMC,084124,A,2727.9630,S,15305.4756,E,026.9,104.8,231108,,,A*61
0.184050:$GPGGA,084125,2727.9650,S,15305.4837,E,1,07,02.0,-00002.9,M,039.4,M,,*78
0.063955:$GPGSA,A,3,07,08,11,13,17,27,28,,,,,,05.2,02.0,04.8*0F
0.188004:$GPGSV,3,1,11,07,48,102,48,08,58,171,50,11,23,075,44,13,26,021,34*79
0.128008:$GPGSV,3,2,11,15,00,215,00,17,34,345,46,27,57,115,52,28,57,244,49*79
0.124000:$GPGSV,3,3,11,25,,,46,19,,,36,47,,,00,,,,*72
0.324004:$GPRMC,084125,A,2727.9650,S,15305.4837,E,026.8,105.7,231108,,,A*61
0.123984:$GPGGA,084126,2727.9672,S,15305.4919,E,1,06,02.1,-00003.0,M,039.4,M,,*7E
0.128018:$GPGSA,A,3,07,08,11,17,27,28,,,,,,,05.3,02.1,04.8*0D
0.184013:$GPGSV,3,1,11,07,48,102,47,08,58,171,51,11,23,075,43,13,26,021,32*76
0.123986:$GPGSV,3,2,11,15,00,215,00,17,34,345,46,27,57,115,52,28,57,244,50*71
0.063993:$GPGSV,3,3,11,25,,,46,19,,,35,47,,,00,,,,*71
0.383991:$GPRMC,084126,A,2727.9672,S,15305.4919,E,027.1,106.6,231108,,,A*65
0.124017:$GPGGA,084127,2727.9696,S,15305.5001,E,1,07,02.0,-00003.3,M,039.4,M,,*77
0.123983:$GPGSA,A,3,07,08,11,13,17,27,28,,,,,,05.2,02.0,04.8*0F
0.124013:$GPGSV,3,1,11,07,48,102,47,08,58,171,52,11,23,075,44,13,26,021,33*73
0.192070:$GPGSV,3,2,11,15,00,215,00,17,34,345,46,27,57,115,52,28,57,244,50*71
0.059915:$GPGSV,3,3,11,25,,,46,19,,,34,47,,,00,,,,*70
0.124011:$GPRMC,084127,A,2727.9696,S,15305.5001,E,027.3,107.3,231108,,,A*69
0.396040:$GPGGA,084128,2727.9719,S,15305.5083,E,1,07,02.0,-00003.6,M,039.4,M,,*71
0.127967:$GPGSA,A,3,07,08,11,13,17,27,28,,,,,,05.2,02.0,04.8*0F
0.123991:$GPGSV,3,1,11,07,48,102,47,08,58,171,51,11,23,075,45,13,26,021,35*77
0.123988:$GPGSV,3,2,11,15,00,215,00,17,34,345,47,27,57,115,52,28,57,244,48*79
0.128007:$GPGSV,3,3,11,25,,,47,19,,,29,47,,,00,,,,*7D
0.320012:$GPRMC,084128,A,2727.9719,S,15305.5083,E,027.4,106.8,231108,,,A*67
0.188045:$GPGGA,084129,2727.9738,S,15305.5168,E,1,07,02.0,-00003.8,M,039.4,M,,*79
0.127947:$GPGSA,A,3,07,08,11,13,17,27,28,,,,,,05.2,02.0,04.8*0F
0.124007:$GPGSV,3,1,11,07,48,102,49,08,58,171,51,11,23,075,45,13,26,021,37*7B
0.127997:$GPGSV,3,2,11,15,00,215,00,17,34,345,49,27,57,115,52,28,57,244,47*78
0.124005:$GPGSV,3,3,11,25,,,49,19,,,30,47,,,00,,,,*7B
0.323987:$GPRMC,084129,A,2727.9738,S,15305.5168,E,027.4,103.9,231108,,,A*65
0.188004:$GPGGA,084130,2727.9753,S,15305.5250,E,1,08,02.0,-00003.9,M,039.4,M,,*7A
0.059993:$GPGSA,A,3,07,08,11,13,17,25,27,28,,,,,05.2,02.0,04.8*08
0.187996:$GPGSV,3,1,11,07,48,102,50,08,58,171,51,11,23,075,41,13,26,021,38*78
0.124053:$GPGSV,3,2,11,15,00,215,00,17,34,345,50,25,33,080,49,27,57,115,52*7B
0.127960:$GPGSV,3,3,11,28,57,244,45,19,,,31,47,,,00,,,,*4B
0.307991:$GPRMC,084130,A,2727.9753,S,15305.5250,E,027.1,101.6,231108,,,A*60
0.188014:$GPGGA,084131,2727.9768,S,15305.5332,E,1,07,02.1,-00004.1,M,039.4,M,,*77
0.064122:$GPGSA,A,3,07,08,11,17,25,27,28,,,,,,05.3,02.1,04.8*0A
0.183877:$GPGSV,3,1,11,07,48,102,50,08,58,171,51,11,23,075,39,13,26,021,40*78
0.128000:$GPGSV,3,2,11,15,00,215,00,17,34,345,50,25,33,080,51,27,57,115,52*72
0.123998:$GPGSV,3,3,11,28,57,244,43,19,,,32,47,,,00,,,,*4E
0.315999:$GPRMC,084131,A,2727.9768,S,15305.5332,E,026.6,101.5,231108,,,A*69
0.188004:$GPGGA,084132,2727.9781,S,15305.5414,E,1,08,02.0,-00004.3,M,039.4,M,,*7C
0.059997:$GPGSA,A,3,07,08,11,13,17,25,27,28,,,,,05.2,02.0,04.8*08
0.187981:$GPGSV,3,1,10,07,48,102,50,08,58,171,51,11,23,075,38,13,26,021,43*7B
0.128015:$GPGSV,3,2,10,15,00,215,00,17,34,345,50,25,33,080,49,27,57,115,51*79
0.124045:$GPGSV,3,3,10,28,57,244,43,19,,,29,,,,,,,,*46
0.311964:$GPRMC,084132,A,2727.9781,S,15305.5414,E,026.3,100.7,231108,,,A*68
0.125720:$GPGGA,084133,2727.9794,S,15305.5494,E,1,08,02.0,-00004.5,M,039.4,M,,*77
0.122271:$GPGSA,A,3,07,08,11,13,17,25,27,28,,,,,05.2,02.0,04.8*08
0.188036:$GPGSV,3,1,10,07,48,102,50,08,58,171,51,11,23,075,39,13,25,021,43*79
0.123986:$GPGSV,3,2,10,15,00,215,00,17,34,345,49,25,33,080,50,27,57,115,52*7A
0.123984:$GPGSV,3,3,10,28,57,244,44,19,,,32,,,,,,,,*4B
0.327994:$GPRMC,084133,A,2727.9794,S,15305.5494,E,025.9,100.0,231108,,,A*6B
0.123989:$GPGGA,084134,2727.9805,S,15305.5574,E,1,08,02.0,-00004.7,M,039.4,M,,*7A
0.124056:$GPGSA,A,3,07,08,11,13,17,25,27,28,,,,,05.2,02.0,04.8*08
0.188198:$GPGSV,3,1,10,07,48,102,51,08,58,171,51,11,23,075,42,13,25,021,41*76
0.127748:$GPGSV,3,2,10,15,00,215,00,17,34,345,48,25,33,080,49,27,57,115,51*70
0.124014:$GPGSV,3,3,10,28,57,244,43,19,,,28,,,,,,,,*47
0.320010:$GPRMC,084134,A,2727.9805,S,15305.5574,E,025.8,099.6,231108,,,A*62
0.123994:$GPGGA,084135,2727.9817,S,15305.5654,E,1,08,02.0,-00004.8,M,039.4,M,,*76
0.123992:$GPGSA,A,3,07,08,11,13,17,25,27,28,,,,,05.2,02.0,04.8*08
0.188038:$GPGSV,3,1,11,07,48,102,51,08,58,171,51,11,23,075,42,13,25,021,40*76
0.123959:$GPGSV,3,2,11,15,00,215,00,17,34,345,48,25,33,080,49,27,57,115,51*71
0.124147:$GPGSV,3,3,11,28,57,244,43,19,,,32,47,,,00,,,,*4E
0.311855:$GPRMC,084135,A,2727.9817,S,15305.5654,E,025.5,099.5,231108,,,A*6F
0.124001:$GPGGA,084136,2727.9830,S,15305.5733,E,1,08,02.0,-00004.9,M,039.4,M,,*71
0.124002:$GPGSA,A,3,07,08,11,13,17,25,27,28,,,,,05.2,02.0,04.8*08
0.188005:$GPGSV,3,1,11,07,48,102,51,08,58,171,51,11,23,075,41,13,25,021,42*77
0.127999:$GPGSV,3,2,11,15,00,215,00,17,34,345,50,25,33,080,50,27,57,115,52*73
0.124130:$GPGSV,3,3,11,28,57,244,43,19,,,29,47,,,00,,,,*44
0.311859:$GPRMC,084136,A,2727.9830,S,15305.5733,E,025.7,099.7,231108,,,A*69
0.125421:$GPGGA,084137,2727.9842,S,15305.5814,E,1,08,02.0,-00005.1,M,039.4,M,,*76
0.122583:$GPGSA,A,3,07,08,11,13,17,25,27,28,,,,,05.2,02.0,04.8*08
0.188010:$GPGSV,3,1,11,07,48,102,50,08,58,170,51,11,23,075,38,13,25,021,35*79
0.123979:$GPGSV,3,2,11,15,00,215,00,17,34,345,49,25,33,080,50,27,57,115,52*7B
0.124017:$GPGSV,3,3,11,28,57,244,44,19,,,26,47,,,00,,,,*4C
0.312006:$GPRMC,084137,A,2727.9842,S,15305.5814,E,026.1,099.8,231108,,,A*6D
0.123968:$GPGGA,084138,2727.9855,S,15305.5893,E,1,08,02.0,-00005.4,M,039.4,M,,*75
0.124029:$GPGSA,A,3,07,08,11,13,17,25,27,28,,,,,05.2,02.0,04.8*08
0.187998:$GPGSV,3,1,11,07,48,102,50,08,58,170,52,11,23,075,41,13,25,021,37*76
0.127981:$GPGSV,3,2,11,15,00,215,00,17,34,345,49,25,33,080,50,27,57,115,52*7B
0.124019:$GPGSV,3,3,11,28,57,244,45,19,,,00,47,,,00,,,,*49
0.299995:$GPRMC,084138,A,2727.9855,S,15305.5893,E,025.6,099.9,231108,,,A*6E
0.124006:$GPGGA,084139,2727.9867,S,15305.5966,E,1,08,02.0,-00005.5,M,039.4,M,,*7F
0.127994:$GPGSA,A,3,07,08,11,13,17,25,27,28,,,,,05.2,02.0,04.8*08
0.184009:$GPGSV,3,1,11,07,48,102,47,08,58,170,51,11,23,075,41,13,25,021,42*71
0.127994:$GPGSV,3,2,11,15,00,215,00,17,34,345,50,25,33,080,49,27,57,115,51*78
0.124003:$GPGSV,3,3,11,28,57,244,45,19,,,33,47,,,00,,,,*49
0.319993:$GPRMC,084139,A,2727.9867,S,15305.5966,E,023.8,100.8,231108,,,A*6D
0.123990:$GPGGA,084140,2727.9879,S,15305.6033,E,1,08,02.0,-00005.5,M,039.4,M,,*74
0.128019:$GPGSA,A,3,07,08,11,13,17,25,27,28,,,,,05.2,02.0,04.8*08
0.183991:$GPGSV,3,1,11,07,48,102,46,08,58,170,50,11,23,075,41,13,25,021,41*72
0.124008:$GPGSV,3,2,11,15,00,216,00,17,34,345,50,25,33,080,48,27,57,115,51*7A
0.127966:$GPGSV,3,3,11,28,57,244,46,19,,,34,47,,,00,,,,*4D
0.308125:$GPRMC,084140,A,2727.9879,S,15305.6033,E,021.6,101.9,231108,,,A*6A
0.123905:$GPGGA,084141,2727.9890,S,15305.6097,E,1,08,02.0,-00005.2,M,039.4,M,,*7B
0.127985:$GPGSA,A,3,07,08,11,13,17,25,27,28,,,,,05.2,02.0,04.8*08
0.188010:$GPGSV,3,1,11,07,48,102,47,08,58,170,50,11,23,075,39,13,25,021,35*7F
0.124003:$GPGSV,3,2,11,15,00,216,00,17,34,345,47,25,33,080,46,27,57,115,51*72
0.127985:$GPGSV,3,3,11,28,57,244,50,19,,,39,47,,,00,,,,*47
0.308132:$GPRMC,084141,A,2727.9890,S,15305.6097,E,020.1,102.2,231108,,,A*6C
0.123885:$GPGGA,084142,2727.9914,S,15305.6149,E,1,08,02.0,-00005.3,M,039.4,M,,*76
0.124261:$GPGSA,A,3,07,08,11,13,17,25,27,28,,,,,05.2,02.0,04.8*08
0.187737:$GPGSV,3,1,11,07,48,102,48,08,58,170,50,11,23,075,36,13,25,021,39*73
0.124055:$GPGSV,3,2,11,15,00,216,00,17,34,345,46,25,33,080,35,27,57,115,50*76
0.127956:$GPGSV,3,3,11,28,57,244,51,19,,,46,47,,,00,,,,*4E
0.307986:$GPRMC,084142,A,2727.9914,S,15305.6149,E,018.4,118.0,231108,,,A*67
0.187998:$GPGGA,084143,2727.9948,S,15305.6187,E,1,08,02.0,-00005.1,M,039.4,M,,*7E
0.064011:$GPGSA,A,3,07,08,11,13,17,25,27,28,,,,,05.2,02.0,04.8*08
0.187994:$GPGSV,3,1,11,07,48,102,46,08,58,170,50,11,23,075,44,13,25,021,47*71
0.124859:$GPGSV,3,2,11,15,00,216,00,17,34,345,42,25,33,080,45,27,57,115,49*7D
0.123145:$GPGSV,3,3,11,28,57,244,49,19,,,46,47,,,00,,,,*47
0.308029:$GPRMC,084143,A,2727.9948,S,15305.6187,E,017.1,137.1,231108,,,A*6B
0.192009:$GPGGA,084144,2727.9991,S,15305.6209,E,1,08,02.0,-00005.0,M,039.4,M,,*79
0.060024:$GPGSA,A,3,07,08,11,13,17,25,27,28,,,,,05.2,02.0,04.8*08
0.187920:$GPGSV,3,1,10,07,48,102,47,08,58,170,52,11,23,075,38,13,25,021,39*71
0.124017:$GPGSV,3,2,10,15,00,216,00,17,34,345,44,25,33,080,45,27,57,115,49*7A
0.127998:$GPGSV,3,3,10,28,57,244,50,19,,,35,,,,,,,,*49
0.307985:$GPRMC,084144,A,2727.9991,S,15305.6209,E,017.0,158.4,231108,,,A*60
0.128017:$GPGGA,084145,2728.0041,S,15305.6216,E,1,07,02.6,-00004.8,M,039.4,M,,*74
0.123986:$GPGSA,A,3,07,08,13,17,25,27,28,,,,,,08.2,02.6,07.7*0F
0.188018:$GPGSV,3,1,10,07,48,102,52,08,58,170,48,11,23,075,38,13,25,021,37*70
0.124000:$GPGSV,3,2,10,15,00,216,00,17,34,345,42,25,33,080,45,27,57,115,49*7C
0.123991:$GPGSV,3,3,10,28,57,244,49,19,,,27,,,,,,,,*42
0.331991:$GPRMC,084145,A,2728.0041,S,15305.6216,E,018.4,174.9,231108,,,A*65
0.124043:$GPGGA,084146,2728.0098,S,15305.6213,E,1,08,02.0,-00004.8,M,039.4,M,,*7F
0.124025:$GPGSA,A,3,07,08,11,13,17,25,27,28,,,,,05.2,02.0,04.8*08
0.187948:$GPGSV,3,1,10,07,48,102,51,08,58,170,47,11,23,075,36,13,25,021,41*73
0.127993:$GPGSV,3,2,10,15,00,216,00,17,34,345,47,25,33,080,46,27,57,115,51*73
0.060007:$GPGSV,3,3,10,28,57,244,51,19,,,35,,,,,,,,*48
0.383993:$GPRMC,084146,A,2728.0098,S,15305.6213,E,021.1,183.9,231108,,,A*60
0.124003:$GPGGA,084147,2728.0160,S,15305.6205,E,1,08,02.0,-00004.8,M,039.4,M,,*7F
0.123998:$GPGSA,A,3,07,08,11,13,17,25,27,28,,,,,05.2,02.0,04.8*08
0.128000:$GPGSV,3,1,11,07,48,102,46,08,58,170,48,11,23,075,34,13,25,021,39*76
0.188045:$GPGSV,3,2,11,15,00,216,00,17,34,345,48,25,33,080,47,27,57,115,51*7C
0.059949:$GPGSV,3,3,11,28,57,244,51,19,,,35,47,,,00,,,,*4A
0.372020:$GPRMC,084147,A,2728.0160,S,15305.6205,E,022.2,187.6,231108,,,A*6B
0.127986:$GPGGA,084148,2728.0219,S,15305.6195,E,1,08,02.0,-00004.8,M,039.4,M,,*77
0.125042:$GPGSA,A,3,07,08,11,13,17,25,27,28,,,,,05.2,02.0,04.8*08
0.122991:$GPGSV,3,1,11,07,48,102,45,08,58,170,49,11,23,075,40,13,25,021,38*76
0.187968:$GPGSV,3,2,11,15,00,216,00,17,34,345,48,25,33,080,47,27,57,115,52*7F
0.123996:$GPGSV,3,3,11,28,57,244,52,19,,,41,47,,,00,,,,*4A
0.312016:$GPRMC,084148,A,2728.0219,S,15305.6195,E,021.4,189.1,231108,,,A*6F
0.123984:$GPGGA,084149,2728.0274,S,15305.6184,E,1,08,02.0,-00004.9,M,039.4,M,,*7C
0.124017:$GPGSA,A,3,07,08,11,13,17,25,27,28,,,,,05.2,02.0,04.8*08
0.187976:$GPGSV,3,1,11,07,48,102,44,08,58,170,48,11,23,075,46,13,25,021,39*71
0.124008:$GPGSV,3,2,11,15,00,216,00,17,34,345,48,25,33,080,47,27,57,115,52*7F
0.124141:$GPGSV,3,3,11,28,57,244,52,19,,,35,47,,,00,,,,*49
0.311853:$GPRMC,084149,A,2728.0274,S,15305.6184,E,019.9,189.8,231108,,,A*6A
0.124006:$GPGGA,084150,2728.0325,S,15305.6173,E,1,08,02.0,-00004.8,M,039.4,M,,*78
0.124010:$GPGSA,A,3,07,08,11,13,17,25,27,28,,,,,05.2,02.0,04.8*08
0.191983:$GPGSV,3,1,11,07,48,102,44,08,58,170,48,11,23,075,47,13,25,021,39*70
0.124013:$GPGSV,3,2,11,15,00,216,00,17,34,345,47,25,33,080,47,27,57,115,51*73
0.124136:$GPGSV,3,3,11,28,57,244,51,19,,,35,47,,,00,,,,*4A
0.299973:$GPRMC,084150,A,2728.0325,S,15305.6173,E,018.4,190.0,231108,,,A*63
0.123890:$GPGGA,084151,2728.0369,S,15305.6160,E,1,08,02.0,-00004.5,M,039.4,M,,*7E
0.127986:$GPGSA,A,3,07,08,11,13,17,25,27,28,,,,,05.2,02.0,04.8*08
0.188013:$GPGSV,3,1,11,07,48,102,46,08,58,170,49,11,23,075,46,13,25,021,35*7E
0.124008:$GPGSV,3,2,11,15,00,216,00,17,34,345,46,25,33,080,47,27,57,115,52*71
0.123986:$GPGSV,3,3,11,28,57,244,50,19,,,46,47,,,00,,,,*4F
0.335996:$GPRMC,084151,A,2728.0369,S,15305.6160,E,016.2,195.1,231108,,,A*64
0.128046:$GPGGA,084152,2728.0405,S,15305.6138,E,1,08,02.0,-00004.1,M,039.4,M,,*79
0.123959:$GPGSA,A,3,07,08,11,13,17,25,27,28,,,,,05.2,02.0,04.8*08
0.184039:$GPGSV,3,1,11,07,48,102,49,08,58,170,50,11,23,075,41,13,25,021,38*73
0.127967:$GPGSV,3,2,11,15,01,216,00,17,34,345,42,25,33,080,46,27,57,115,52*75
0.124010:$GPGSV,3,3,11,28,57,244,49,19,,,43,47,,,00,,,,*42
0.295992:$GPRMC,084152,A,2728.0405,S,15305.6138,E,014.4,209.1,231108,,,A*65
0.123978:$GPGGA,084153,2728.0430,S,15305.6105,E,1,08,02.0,-00003.6,M,039.4,M,,*70
0.123998:$GPGSA,A,3,07,08,11,13,17,25,27,28,,,,,05.2,02.0,04.8*08
0.188020:$GPGSV,3,1,11,07,48,102,46,08,58,170,48,11,23,075,37,13,25,021,41*7A
0.123995:$GPGSV,3,2,11,15,01,216,00,17,34,345,46,25,33,080,43,27,57,115,48*7F
0.128008:$GPGSV,3,3,11,28,57,244,51,19,,,36,47,,,00,,,,*49
0.308003:$GPRMC,084153,A,2728.0430,S,15305.6105,E,013.4,231.3,231108,,,A*62
0.123987:$GPGGA,084154,2728.0443,S,15305.6061,E,1,08,02.0,-00003.4,M,039.4,M,,*72
0.128013:$GPGSA,A,3,07,08,11,13,17,25,27,28,,,,,05.2,02.0,04.8*08
0.183987:$GPGSV,3,1,11,07,48,102,44,08,58,170,51,11,23,075,35,13,25,021,38*7C
0.128006:$GPGSV,3,2,11,15,01,216,00,17,34,345,45,25,33,080,41,27,57,115,34*75
0.123986:$GPGSV,3,3,11,28,57,244,48,19,,,45,47,,,00,,,,*45
0.308120:$GPRMC,084154,A,2728.0443,S,15305.6061,E,014.8,252.9,231108,,,A*66
0.128640:$GPGGA,084155,2728.0449,S,15305.6005,E,1,08,02.0,-00003.9,M,039.4,M,,*76
0.123240:$GPGSA,A,3,07,08,11,13,17,25,27,28,,,,,05.2,02.0,04.8*08
0.188018:$GPGSV,3,1,11,07,48,102,44,08,58,170,52,11,23,075,39,13,25,021,41*7D
0.123995:$GPGSV,3,2,11,15,01,216,00,17,34,345,49,25,33,080,43,27,57,115,38*77
0.127995:$GPGSV,3,3,11,28,57,244,51,19,,,41,47,,,00,,,,*49
0.308110:$GPRMC,084155,A,2728.0449,S,15305.6005,E,018.0,265.3,231108,,,A*65
0.123895:$GPGGA,084156,2728.0447,S,15305.5938,E,1,08,02.0,-00004.6,M,039.4,M,,*77
0.124001:$GPGSA,A,3,07,08,11,13,17,25,27,28,,,,,05.2,02.0,04.8*08
0.188000:$GPGSV,3,1,10,07,48,102,42,08,58,170,52,11,23,075,41,13,25,021,44*70
0.127999:$GPGSV,3,2,10,15,01,216,00,17,34,345,48,25,33,080,41,27,57,115,43*79
0.123997:$GPGSV,3,3,10,28,57,244,51,19,,,34,,,,,,,,*49
0.308006:$GPRMC,084156,A,2728.0447,S,15305.5938,E,021.1,274.0,231108,,,A*64
0.127991:$GPGGA,084157,2728.0440,S,15305.5863,E,1,08,02.0,-00005.1,M,039.4,M,,*78
0.124007:$GPGSA,A,3,07,08,11,13,17,25,27,28,,,,,05.2,02.0,04.8*08
0.187997:$GPGSV,3,1,10,07,48,102,44,08,58,170,52,11,23,075,42,13,25,021,46*77
0.124005:$GPGSV,3,2,10,15,01,216,00,17,34,345,49,19,19,137,36,25,33,080,41*7D
0.124011:$GPGSV,3,3,10,27,57,115,42,28,57,244,51,,,,,,,,*72
0.316126:$GPRMC,084157,A,2728.0440,S,15305.5863,E,024.1,276.4,231108,,,A*6E
0.127864:$GPGGA,084158,2728.0432,S,15305.5785,E,1,08,02.0,-00005.8,M,039.4,M,,*7C
0.123988:$GPGSA,A,3,07,08,11,13,17,25,27,28,,,,,05.2,02.0,04.8*08
0.188013:$GPGSV,3,1,10,07,48,102,42,08,58,170,51,11,23,075,41,13,25,021,46*71
0.123993:$GPGSV,3,2,10,15,01,216,00,17,34,345,49,19,19,137,31,25,33,080,41*7A
0.127998:$GPGSV,3,3,10,27,57,115,42,28,57,244,51,,,,,,,,*72
0.308143:$GPRMC,084158,A,2728.0432,S,15305.5785,E,025.0,278.0,231108,,,A*69
0.183870:$GPGGA,084159,2728.0421,S,15305.5706,E,1,08,02.0,-00006.4,M,039.4,M,,*7B
0.063993:$GPGSA,A,3,07,08,11,13,17,25,27,28,,,,,05.2,02.0,04.8*08
0.187999:$GPGSV,3,1,11,07,48,102,43,08,58,170,52,11,23,075,42,13,25,021,46*71
0.124002:$GPGSV,3,2,11,15,01,216,00,17,34,345,49,19,19,137,34,25,33,080,43*7C
0.124006:$GPGSV,3,3,11,27,57,115,42,28,57,244,52,47,,,00,,,,*73
0.300005:$GPRMC,084159,A,2728.0421,S,15305.5706,E,025.3,278.6,231108,,,A*64
0.187979:$GPGGA,084200,2728.0409,S,15305.5625,E,1,08,02.0,-00007.0,M,039.4,M,,*7B
0.128105:$GPGSA,A,3,07,08,11,13,17,25,27,28,,,,,05.2,02.0,04.8*08
0.123917:$GPGSV,3,1,11,07,48,102,45,08,58,170,52,11,23,075,41,13,25,021,46*74
0.123991:$GPGSV,3,2,11,15,01,216,00,17,34,345,46,19,19,137,38,25,33,080,41*7D
0.128001:$GPGSV,3,3,11,27,57,115,42,28,57,244,51,47,,,00,,,,*70
0.296008:$GPRMC,084200,A,2728.0409,S,15305.5625,E,025.7,279.4,231108,,,A*66
0.188034:$GPGGA,084201,2728.0396,S,15305.5543,E,1,08,02.0,-00007.5,M,039.4,M,,*7D
0.123952:$GPGSA,A,3,07,08,11,13,17,25,27,28,,,,,05.2,02.0,04.8*08
0.124052:$GPGSV,3,1,11,07,48,102,45,08,58,170,52,11,23,075,42,13,25,021,46*77
0.192087:$GPGSV,3,2,11,15,01,216,00,17,34,345,46,19,18,137,37,25,33,080,41*73
0.059876:$GPGSV,3,3,11,27,57,115,41,28,57,244,50,47,,,00,,,,*72
0.363986:$GPRMC,084201,A,2728.0396,S,15305.5543,E,026.3,280.1,231108,,,A*61
0.123998:$GPGGA,084202,2728.0384,S,15305.5459,E,1,08,02.0,-00008.1,M,039.4,M,,*7C
0.123986:$GPGSA,A,3,07,08,11,13,17,25,27,28,,,,,05.2,02.0,04.8*08
0.128164:$GPGSV,3,1,11,07,48,102,45,08,58,170,52,11,23,075,42,13,25,021,45*74
0.183861:$GPGSV,3,2,11,15,01,216,00,17,34,345,46,19,18,137,40,25,33,080,41*73
0.127999:$GPGSV,3,3,11,27,57,115,42,28,57,244,50,47,,,00,,,,*71
0.288109:$GPRMC,084202,A,2728.0384,S,15305.5459,E,026.8,280.0,231108,,,A*61
0.127884:$GPGGA,084203,2728.0372,S,15305.5374,E,1,08,02.0,-00008.6,M,039.4,M,,*7B
0.123985:$GPGSA,A,3,07,08,11,13,17,25,27,28,,,,,05.2,02.0,04.8*08
0.188010:$GPGSV,3,1,11,07,48,102,45,08,58,170,52,11,23,075,42,13,25,021,40*71
0.124004:$GPGSV,3,2,11,15,01,216,00,17,34,345,46,19,18,137,36,25,33,080,41*72
0.123999:$GPGSV,3,3,11,27,57,115,42,28,57,244,50,47,,,00,,,,*71
0.308008:$GPRMC,084203,A,2728.0372,S,15305.5374,E,027.0,279.7,231108,,,A*69
0.188002:$GPGGA,084204,2728.0361,S,15305.5289,E,1,08,02.0,-00009.1,M,039.4,M,,*7B
0.061305:$GPGSA,A,3,07,08,11,13,17,25,27,28,,,,,05.2,02.0,04.8*08
0.190688:$GPGSV,3,1,11,07,48,102,44,08,58,170,52,11,23,075,42,13,25,021,41*71
0.123999:$GPGSV,3,2,11,15,01,216,00,17,34,345,47,19,18,137,39,25,33,080,41*7C
0.123997:$GPGSV,3,3,11,27,57,115,41,28,57,244,50,47,,,00,,,,*72
0.299995:$GPRMC,084204,A,2728.0361,S,15305.5289,E,027.1,279.5,231108,,,A*6C
0.188044:$GPGGA,084205,2728.0348,S,15305.5203,E,1,08,02.0,-00009.5,M,039.4,M,,*77
0.128117:$GPGSA,A,3,07,08,11,13,17,25,27,28,,,,,05.2,02.0,04.8*08
0.123847:$GPGSV,3,1,11,07,48,102,44,08,58,170,52,11,23,075,42,13,25,021,42*72
0.124052:$GPGSV,3,2,11,15,01,216,00,17,34,345,48,19,18,137,40,25,33,080,41*7D
0.123952:$GPGSV,3,3,11,27,57,114,42,28,57,244,50,47,,,00,,,,*70
0.300036:$GPRMC,084205,A,2728.0348,S,15305.5203,E,027.3,279.7,231108,,,A*64
0.187959:$GPGGA,084206,2728.0333,S,15305.5118,E,1,08,02.0,-00009.8,M,039.4,M,,*7C
0.124005:$GPGSA,A,3,07,08,11,13,17,25,27,28,,,,,05.2,02.0,04.8*08
0.127982:$GPGSV,3,1,11,07,48,102,42,08,58,170,52,11,23,075,41,13,25,021,42*77
0.188148:$GPGSV,3,2,11,15,01,216,00,17,34,345,49,19,18,137,42,25,33,080,43*7C
0.059866:$GPGSV,3,3,11,27,57,114,42,28,57,244,49,47,,,00,,,,*78
0.364002:$GPRMC,084206,A,2728.0333,S,15305.5118,E,027.1,280.4,231108,,,A*65
0.123990:$GPGGA,084207,2728.0316,S,15305.5035,E,1,08,02.0,-00010.1,M,039.4,M,,*75
0.124035:$GPGSA,A,3,07,08,11,13,17,25,27,28,,,,,05.2,02.0,04.8*08
0.123979:$GPGSV,3,1,11,07,48,102,44,08,58,170,52,11,23,075,41,13,25,021,47*74
0.188005:$GPGSV,3,2,11,15,01,216,00,17,34,345,46,19,18,137,35,25,33,080,46*76
0.127969:$GPGSV,3,3,11,27,57,114,40,28,57,244,49,47,,,00,,,,*7A
0.304015:$GPRMC,084207,A,2728.0316,S,15305.5035,E,026.8,283.9,231108,,,A*6B
0.124012:$GPGGA,084208,2728.0293,S,15305.4955,E,1,08,02.0,-00010.3,M,039.4,M,,*7A
0.127996:$GPGSA,A,3,07,08,11,13,17,25,27,28,,,,,05.2,02.0,04.8*08
0.187992:$GPGSV,3,1,10,07,48,102,46,08,58,170,50,11,23,075,39,13,25,021,49*74
0.124005:$GPGSV,3,2,10,15,01,216,00,17,34,345,45,19,18,137,32,25,33,080,45*70
0.123997:$GPGSV,3,3,10,27,57,114,37,28,57,244,49,,,,,,,,*78
0.292009:$GPRMC,084208,A,2728.0293,S,15305.4955,E,026.4,287.9,231108,,,A*6E
0.127998:$GPGGA,084209,2728.0269,S,15305.4876,E,1,08,02.0,-00010.5,M,039.4,M,,*78
0.123996:$GPGSA,A,3,07,08,11,13,17,25,27,28,,,,,05.2,02.0,04.8*08
0.187996:$GPGSV,3,1,10,07,48,102,48,08,58,170,48,11,23,075,41,13,25,021,50*74
0.123997:$GPGSV,3,2,10,15,01,216,00,17,34,345,44,19,18,137,28,25,33,080,45*7A
0.124013:$GPGSV,3,3,10,27,57,114,39,28,57,244,50,,,,,,,,*7E
0.316125:$GPRMC,084209,A,2728.0269,S,15305.4876,E,026.2,289.8,231108,,,A*63
0.127866:$GPGGA,084210,2728.0245,S,15305.4800,E,1,08,02.0,-00010.6,M,039.4,M,,*7C
0.123986:$GPGSA,A,3,07,08,11,13,17,25,27,28,,,,,05.2,02.0,04.8*08
0.188014:$GPGSV,3,1,10,07,48,102,46,08,58,170,47,11,23,075,39,13,25,021,49*72
0.123995:$GPGSV,3,2,10,15,01,216,00,17,34,345,41,19,18,137,00,25,33,080,45*75
0.128018:$GPGSV,3,3,10,27,57,114,37,28,57,244,49,,,,,,,,*78
0.308128:$GPRMC,084210,A,2728.0245,S,15305.4800,E,025.6,289.7,231108,,,A*6C
0.183867:$GPGGA,084211,2728.0225,S,15305.4722,E,1,08,02.0,-00010.6,M,039.4,M,,*74
0.063998:$GPGSA,A,3,07,08,11,13,17,25,27,28,,,,,05.2,02.0,04.8*08
0.188007:$GPGSV,3,1,11,07,48,102,46,08,58,170,50,11,23,075,40,13,25,021,48*7A
0.123994:$GPGSV,3,2,11,15,01,216,00,17,34,345,45,19,18,137,34,25,33,080,46*74
0.124002:$GPGSV,3,3,11,27,57,114,39,28,57,244,49,47,,,00,,,,*74
0.299984:$GPRMC,084211,A,2728.0225,S,15305.4722,E,025.5,286.2,231108,,,A*6D
0.187996:$GPGGA,084212,2728.0207,S,15305.4644,E,1,08,02.0,-00010.6,M,039.4,M,,*76
0.128218:$GPGSA,A,3,07,08,11,13,17,25,27,28,,,,,05.2,02.0,04.8*08
0.123785:$GPGSV,3,1,11,07,48,102,43,08,58,170,51,11,23,075,41,13,25,021,49*7E
0.124016:$GPGSV,3,2,11,15,01,216,00,17,34,345,43,19,18,137,37,25,33,080,47*70
0.123980:$GPGSV,3,3,11,27,57,114,40,28,57,244,49,47,,,00,,,,*7A
0.300061:$GPRMC,084212,A,2728.0207,S,15305.4644,E,025.2,283.8,231108,,,A*67
0.187959:$GPGGA,084213,2728.0193,S,15305.4567,E,1,08,02.0,-00010.5,M,039.4,M,,*78
0.123997:$GPGSA,A,3,07,08,11,13,17,25,27,28,,,,,05.2,02.0,04.8*08
0.127982:$GPGSV,3,1,11,07,48,102,44,08,58,170,52,11,23,075,41,13,25,021,46*75
0.188153:$GPGSV,3,2,11,15,01,216,00,17,34,345,47,19,18,137,37,25,33,080,45*76
0.059863:$GPGSV,3,3,11,27,57,114,42,28,57,244,49,47,,,00,,,,*78
0.364010:$GPRMC,084213,A,2728.0193,S,15305.4567,E,025.0,281.5,231108,,,A*67
0.123990:$GPGGA,084214,2728.0180,S,15305.4491,E,1,08,02.0,-00010.5,M,039.4,M,,*75
0.123984:$GPGSA,A,3,07,08,11,13,17,25,27,28,,,,,05.2,02.0,04.8*08
0.128152:$GPGSV,3,1,11,07,48,102,44,08,58,170,52,11,23,075,41,13,25,021,48*7B
0.183870:$GPGSV,3,2,11,15,01,216,00,17,34,345,48,19,18,137,40,25,33,080,41*7D
0.128000:$GPGSV,3,3,11,27,57,114,41,28,57,244,50,47,,,00,,,,*73
0.288092:$GPRMC,084214,A,2728.0180,S,15305.4491,E,024.7,280.8,231108,,,A*60
0.127903:$GPGGA,084215,2728.0168,S,15305.4416,E,1,08,02.0,-00010.7,M,039.4,M,,*7F
0.123979:$GPGSA,A,3,07,08,11,13,17,25,27,28,,,,,05.2,02.0,04.8*08
0.188017:$GPGSV,3,1,11,07,48,102,42,08,58,170,52,11,23,075,41,13,25,021,48*7D
0.124004:$GPGSV,3,2,11,15,01,216,00,17,34,345,48,19,18,137,38,25,33,080,41*72
0.124002:$GPGSV,3,3,11,27,57,114,41,28,57,244,49,47,,,00,,,,*7B
0.307999:$GPRMC,084215,A,2728.0168,S,15305.4416,E,023.8,279.9,231108,,,A*67
0.188000:$GPGGA,084216,2728.0156,S,15305.4347,E,1,08,02.0,-00010.7,M,039.4,M,,*72
0.064003:$GPGSA,A,3,07,08,11,13,17,25,27,28,,,,,05.2,02.0,04.8*08
0.187993:$GPGSV,3,1,11,07,48,102,42,08,58,170,52,11,23,075,41,13,25,021,48*7D
0.124004:$GPGSV,3,2,11,15,01,216,00,17,34,345,49,19,18,137,40,25,33,080,42*7F
0.123995:$GPGSV,3,3,11,27,57,114,42,28,57,244,50,47,,,00,,,,*70
0.299997:$GPRMC,084216,A,2728.0156,S,15305.4347,E,022.5,281.1,231108,,,A*69
0.187988:$GPGGA,084217,2728.0144,S,15305.4283,E,1,08,02.0,-00010.8,M,039.4,M,,*76
0.125341:$GPGSA,A,3,07,08,11,13,17,25,27,28,,,,,05.2,02.0,04.8*08
0.126674:$GPGSV,3,1,11,07,48,102,45,08,58,170,52,11,23,075,39,13,25,021,48*75
0.124001:$GPGSV,3,2,11,15,01,216,00,17,34,345,48,19,18,137,37,25,33,080,42*7E
0.124003:$GPGSV,3,3,11,27,57,114,43,28,57,244,50,47,,,00,,,,*71
0.300010:$GPRMC,084217,A,2728.0144,S,15305.4283,E,020.3,281.5,231108,,,A*62
0.187988:$GPGGA,084218,2728.0133,S,15305.4224,E,1,08,02.0,-00010.8,M,039.4,M,,*74
0.123998:$GPGSA,A,3,07,08,11,13,17,25,27,28,,,,,05.2,02.0,04.8*08
0.127988:$GPGSV,3,1,11,07,48,102,46,08,58,170,52,11,23,075,40,13,25,021,47*77
0.188147:$GPGSV,3,2,11,15,01,216,00,17,34,345,50,19,18,137,39,25,33,080,43*78
0.059868:$GPGSV,3,3,11,27,57,114,44,28,57,244,51,47,,,00,,,,*77
0.364003:$GPRMC,084218,A,2728.0133,S,15305.4224,E,018.7,282.3,231108,,,A*6A
0.124942:$GPGGA,084219,2728.0116,S,15305.4173,E,1,08,02.0,-00010.7,M,039.4,M,,*7C
0.123061:$GPGSA,A,3,07,08,11,13,17,25,27,28,,,,,05.2,02.0,04.8*08
0.128119:$GPGSV,3,1,11,07,48,102,47,08,58,170,48,11,23,075,39,13,25,021,47*73
0.183883:$GPGSV,3,2,11,15,01,216,00,17,34,345,45,19,18,137,33,25,33,080,45*70
0.127972:$GPGSV,3,3,11,27,57,114,41,28,57,244,50,47,,,00,,,,*73
0.296042:$GPRMC,084219,A,2728.0116,S,15305.4173,E,017.1,290.3,231108,,,A*67
0.127976:$GPGGA,084220,2728.0093,S,15305.4130,E,1,08,02.0,-00010.9,M,039.4,M,,*73
0.124003:$GPGSA,A,3,07,08,11,13,17,25,27,28,,,,,05.2,02.0,04.8*08
0.187992:$GPGSV,3,1,11,07,48,102,47,08,58,170,40,11,23,075,36,13,25,021,47*74
0.123999:$GPGSV,3,2,11,15,01,216,00,17,34,345,45,19,18,137,35,25,33,080,40*73
0.124003:$GPGSV,3,3,11,27,57,114,42,28,57,244,49,47,,,00,,,,*78
0.292053:$GPRMC,084220,A,2728.0093,S,15305.4130,E,015.5,303.8,231108,,,A*60
0.187951:$GPGGA,084221,2728.0060,S,15305.4100,E,1,08,02.0,-00010.9,M,039.4,M,,*7D
0.064006:$GPGSA,A,3,07,08,11,13,17,25,27,28,,,,,05.2,02.0,04.8*08
0.183992:$GPGSV,3,1,10,07,48,102,50,08,58,170,43,11,23,075,43,13,25,021,44*71
0.127990:$GPGSV,3,2,10,15,01,216,00,17,34,345,47,19,18,137,35,25,33,080,45*75
0.124012:$GPGSV,3,3,10,27,57,114,42,28,57,244,52,,,,,,,,*70
0.316025:$GPRMC,084221,A,2728.0060,S,15305.4100,E,015.3,322.3,231108,,,A*60
0.187975:$GPGGA,084222,2728.0020,S,15305.4084,E,1,08,02.0,-00010.8,M,039.4,M,,*76
0.127999:$GPGSA,A,3,07,08,11,13,17,25,27,28,,,,,05.2,02.0,04.8*08
0.123988:$GPGSV,3,1,10,07,48,102,49,08,58,170,43,11,23,075,46,13,25,021,42*7A
0.124012:$GPGSV,3,2,10,15,01,216,00,17,34,345,47,19,18,137,37,25,33,080,46*74
0.123994:$GPGSV,3,3,10,27,57,114,50,28,57,243,52,,,,,,,,*74
0.312000:$GPRMC,084222,A,2728.0020,S,15305.4084,E,015.2,341.9,231108,,,A*64
0.184012:$GPGGA,084223,2727.9973,S,15305.4081,E,1,08,02.0,-00011.0,M,039.4,M,,*72
0.127997:$GPGSA,A,3,07,08,11,13,17,25,27,28,,,,,05.2,02.0,04.8*08
0.123999:$GPGSV,3,1,10,07,48,102,48,08,58,170,43,11,23,075,48,13,25,021,46*71
0.123985:$GPGSV,3,2,10,15,01,216,00,17,34,345,48,19,18,137,34,25,33,080,47*79
0.126124:$GPGSV,3,3,10,27,57,114,52,28,57,243,47,,,,,,,,*72
0.305897:$GPRMC,084223,A,2727.9973,S,15305.4081,E,016.5,358.1,231108,,,A*6D
0.187975:$GPGGA,084224,2727.9926,S,15305.4086,E,1,08,02.0,-00011.3,M,039.4,M,,*71
0.128120:$GPGSA,A,3,07,08,11,13,17,25,27,28,,,,,05.2,02.0,04.8*08
0.123900:$GPGSV,3,1,11,07,48,102,47,08,58,170,43,11,23,075,46,13,25,021,46*71
0.123994:$GPGSV,3,2,11,15,01,216,00,17,34,345,49,19,18,137,33,25,33,080,49*70
0.128008:$GPGSV,3,3,11,27,57,114,52,28,57,243,36,47,,,00,,,,*76
0.295985:$GPRMC,084224,A,2727.9926,S,15305.4086,E,017.2,005.7,231108,,,A*66
0.188011:$GPGGA,084225,2727.9879,S,15305.4092,E,1,08,02.0,-00011.3,M,039.4,M,,*7E
0.124004:$GPGSA,A,3,07,08,11,13,17,25,27,28,,,,,05.2,02.0,04.8*08
0.127974:$GPGSV,3,1,11,07,48,102,47,08,58,170,45,11,23,075,45,13,25,021,46*74
0.188163:$GPGSV,3,2,11,15,01,216,00,17,34,345,50,19,18,137,34,25,33,080,50*77
0.059858:$GPGSV,3,3,11,27,57,114,52,28,57,243,37,47,,,00,,,,*77
0.364002:$GPRMC,084225,A,2727.9879,S,15305.4092,E,016.8,006.5,231108,,,A*63
0.123999:$GPGGA,084226,2727.9835,S,15305.4093,E,1,08,02.0,-00011.2,M,039.4,M,,*75
0.123989:$GPGSA,A,3,07,08,11,13,17,25,27,28,,,,,05.2,02.0,04.8*08
0.124009:$GPGSV,3,1,11,07,48,102,48,08,58,170,42,11,23,075,45,13,25,021,44*7E
0.188006:$GPGSV,3,2,11,15,01,216,00,17,34,345,49,19,18,137,34,25,33,080,47*79
0.128009:$GPGSV,3,3,11,27,57,114,52,28,57,243,47,47,,,00,,,,*70
0.288086:$GPRMC,084226,A,2727.9835,S,15305.4093,E,015.7,001.0,231108,,,A*67
0.127905:$GPGGA,084227,2727.9793,S,15305.4084,E,1,08,02.0,-00010.7,M,039.4,M,,*75
0.123984:$GPGSA,A,3,07,08,11,13,17,25,27,28,,,,,05.2,02.0,04.8*08
0.188011:$GPGSV,3,1,11,07,48,102,50,08,58,170,45,11,23,075,47,13,25,021,44*72
0.124011:$GPGSV,3,2,11,15,01,216,00,17,34,345,47,19,18,137,35,25,33,080,45*74
0.123987:$GPGSV,3,3,11,27,57,114,49,28,57,243,52,47,,,00,,,,*7E
0.312135:$GPRMC,084227,A,2727.9793,S,15305.4084,E,014.9,347.8,231108,,,A*65
0.183872:$GPGGA,084228,2727.9760,S,15305.4060,E,1,08,02.0,-00010.6,M,039.4,M,,*7D
0.063998:$GPGSA,A,3,07,08,11,13,17,25,27,28,,,,,05.2,02.0,04.8*08
0.188004:$GPGSV,3,1,11,07,48,102,49,08,58,170,36,11,23,075,40,13,25,021,45*78
0.124000:$GPGSV,3,2,11,15,01,216,00,17,34,345,48,19,18,137,34,25,33,080,44*7B
0.128044:$GPGSV,3,3,11,27,57,114,42,28,57,243,52,47,,,00,,,,*75
0.295958:$GPRMC,084228,A,2727.9760,S,15305.4060,E,014.2,324.6,231108,,,A*6C
0.187986:$GPGGA,084229,2727.9736,S,15305.4019,E,1,08,02.0,-00010.8,M,039.4,M,,*7F
0.128141:$GPGSA,A,3,07,08,11,13,17,25,27,28,,,,,05.2,02.0,04.8*08
0.123870:$GPGSV,3,1,11,07,48,102,46,08,58,170,41,11,23,075,36,13,25,021,48*7B
0.123995:$GPGSV,3,2,11,15,01,216,00,17,34,345,39,19,18,137,36,25,33,080,43*78
0.124003:$GPGSV,3,3,11,27,57,114,41,28,57,243,49,47,,,00,,,,*7C
0.299992:$GPRMC,084229,A,2727.9736,S,15305.4019,E,015.5,302.2,231108,,,A*66
0.188010:$GPGGA,084230,2727.9718,S,15305.3967,E,1,08,02.0,-00010.6,M,039.4,M,,*72
0.123992:$GPGSA,A,3,07,08,11,13,17,25,27,28,,,,,05.2,02.0,04.8*08
0.127990:$GPGSV,3,1,11,07,48,102,45,08,58,170,51,11,23,075,41,13,25,021,49*78
0.188151:$GPGSV,3,2,11,15,01,216,00,17,34,345,46,19,18,137,36,25,33,080,47*74
0.059857:$GPGSV,3,3,11,27,57,114,43,28,57,243,49,47,,,00,,,,*7E
0.364004:$GPRMC,084230,A,2727.9718,S,15305.3967,E,018.0,289.5,231108,,,A*68
0.124005:$GPGGA,084231,2727.9704,S,15305.3909,E,1,08,02.0,-00010.6,M,039.4,M,,*76
0.124800:$GPGSA,A,3,07,08,11,13,17,25,27,28,,,,,05.2,02.0,04.8*08
0.127332:$GPGSV,3,1,11,07,48,102,43,08,58,170,52,11,23,075,42,13,25,021,47*70
0.187865:$GPGSV,3,2,11,15,01,216,00,17,34,345,47,19,18,137,34,25,33,080,48*78
0.123986:$GPGSV,3,3,11,27,57,114,43,28,57,243,49,47,,,00,,,,*7E
0.296015:$GPRMC,084231,A,2727.9704,S,15305.3909,E,019.6,283.7,231108,,,A*63
0.127995:$GPGGA,084232,2727.9693,S,15305.3850,E,1,08,02.0,-00010.7,M,039.4,M,,*76
0.124011:$GPGSA,A,3,07,08,11,13,17,25,27,28,,,,,05.2,02.0,04.8*08
0.187985:$GPGSV,3,1,11,07,48,101,41,08,58,170,52,11,23,075,41,13,25,021,47*72
0.124004:$GPGSV,3,2,11,15,01,216,00,17,34,345,48,19,18,137,35,25,33,080,47*79
0.128141:$GPGSV,3,3,11,27,57,114,42,28,57,243,50,47,,,00,,,,*77
0.287908:$GPRMC,084232,A,2727.9693,S,15305.3850,E,019.3,281.1,231108,,,A*63
0.187958:$GPGGA,084233,2727.9685,S,15305.3795,E,1,08,02.0,-00010.8,M,039.4,M,,*79
0.064008:$GPGSA,A,3,07,08,11,13,17,25,27,28,,,,,05.2,02.0,04.8*08
0.187991:$GPGSV,3,1,10,07,48,101,42,08,58,170,52,11,23,075,42,13,25,021,47*73
0.123989:$GPGSV,3,2,10,15,01,216,00,17,34,345,48,19,18,137,32,25,33,080,43*7B
0.124012:$GPGSV,3,3,10,27,57,114,42,28,57,243,50,,,,,,,,*75
0.319998:$GPRMC,084233,A,2727.9685,S,15305.3795,E,017.7,278.7,231108,,,A*69
0.188009:$GPGGA,084234,2727.9683,S,15305.3744,E,1,08,02.0,-00010.8,M,039.4,M,,*74
0.123983:$GPGSA,A,3,07,08,11,13,17,25,27,28,,,,,05.2,02.0,04.8*08
0.123994:$GPGSV,3,1,10,07,48,101,45,08,58,170,52,11,23,075,41,13,25,021,43*73
0.124020:$GPGSV,3,2,10,15,01,216,00,17,34,345,49,19,18,137,36,25,33,080,45*78
0.127999:$GPGSV,3,3,10,27,57,114,36,28,57,243,51,,,,,,,,*77
0.304044:$GPRMC,084234,A,2727.9683,S,15305.3744,E,016.1,271.8,231108,,,A*65
0.191963:$GPGGA,084235,2727.9689,S,15305.3696,E,1,08,02.0,-00010.7,M,039.4,M,,*7E
0.123981:$GPGSA,A,3,07,08,11,13,17,25,27,28,,,,,05.2,02.0,04.8*08
0.124016:$GPGSV,3,1,10,07,48,101,42,08,58,170,52,11,23,075,35,13,25,021,45*71
0.123980:$GPGSV,3,2,10,15,01,216,00,17,34,345,45,19,18,137,43,25,33,080,42*71
0.128019:$GPGSV,3,3,10,27,57,114,37,28,57,243,49,,,,,,,,*7F
0.308042:$GPRMC,084235,A,2727.9689,S,15305.3696,E,015.0,261.6,231108,,,A*6D
0.183937:$GPGGA,084236,2727.9697,S,15305.3654,E,1,08,02.0,-00010.5,M,039.4,M,,*7E
0.128125:$GPGSA,A,3,07,08,11,13,17,25,27,28,,,,,05.2,02.0,04.8*08
0.123889:$GPGSV,3,1,11,07,48,101,38,08,58,170,52,11,23,075,39,13,25,021,35*76
0.124001:$GPGSV,3,2,11,15,01,216,00,17,34,345,46,19,18,137,36,25,33,080,43*70
0.128004:$GPGSV,3,3,11,27,57,114,43,28,57,243,47,47,,,00,,,,*70
0.295993:$GPRMC,084236,A,2727.9697,S,15305.3654,E,013.7,256.1,231108,,,A*6D
0.187999:$GPGGA,084237,2727.9702,S,15305.3613,E,1,08,02.0,-00010.3,M,039.4,M,,*77
0.128010:$GPGSA,A,3,07,08,11,13,17,25,27,28,,,,,05.2,02.0,04.8*08
0.123991:$GPGSV,3,1,11,07,48,101,43,08,58,170,52,11,23,075,37,13,25,021,42*74
0.188102:$GPGSV,3,2,11,15,01,216,00,17,34,345,45,19,18,137,46,25,33,080,45*72
0.059894:$GPGSV,3,3,11,27,57,114,41,28,57,243,49,47,,,00,,,,*7C
0.363997:$GPRMC,084237,A,2727.9702,S,15305.3613,E,012.7,262.1,231108,,,A*64
0.124007:$GPGGA,084238,2727.9696,S,15305.3579,E,1,08,02.0,-00010.2,M,039.4,M,,*7A
0.123979:$GPGSA,A,3,07,08,11,13,17,25,27,28,,,,,05.2,02.0,04.8*08
0.128149:$GPGSV,3,1,11,07,48,101,47,08,58,170,51,11,23,075,39,13,25,021,43*7C
0.183879:$GPGSV,3,2,11,15,01,216,00,17,34,345,48,19,18,137,35,25,33,080,46*78
0.127996:$GPGSV,3,3,11,27,57,114,43,28,57,243,47,47,,,00,,,,*70
0.299990:$GPRMC,084238,A,2727.9696,S,15305.3579,E,011.0,280.9,231108,,,A*68
0.124009:$GPGGA,084239,2727.9679,S,15305.3554,E,1,08,02.0,-00010.1,M,039.4,M,,*76
0.127995:$GPGSA,A,3,07,08,11,13,17,25,27,28,,,,,05.2,02.0,04.8*08
0.184003:$GPGSV,3,1,11,07,48,101,48,08,58,170,37,11,23,075,35,13,25,021,46*7A
0.127998:$GPGSV,3,2,11,15,01,216,00,17,34,345,48,19,18,137,34,25,33,080,42*7D
0.124139:$GPGSV,3,3,11,27,57,114,42,28,57,243,50,47,,,00,,,,*77
0.295858:$GPRMC,084239,A,2727.9679,S,15305.3554,E,009.8,311.4,231108,,,A*62
0.188008:$GPGGA,084240,2727.9653,S,15305.3547,E,1,08,02.0,-00010.2,M,039.4,M,,*71
0.063996:$GPGSA,A,3,07,08,11,13,17,25,27,28,,,,,05.2,02.0,04.8*08
0.188013:$GPGSV,3,1,11,07,48,101,48,08,58,170,45,11,23,075,45,13,25,021,41*7F
0.123983:$GPGSV,3,2,11,15,01,216,00,17,34,345,47,19,18,137,36,25,33,080,46*74
0.128012:$GPGSV,3,3,11,27,57,114,50,28,57,243,50,47,,,00,,,,*74
0.295996:$GPRMC,084240,A,2727.9653,S,15305.3547,E,009.7,347.9,231108,,,A*67
0.187987:$GPGGA,084241,2727.9619,S,15305.3551,E,1,08,02.0,-00010.5,M,039.4,M,,*7E
0.128146:$GPGSA,A,3,07,08,11,13,17,25,27,28,,,,,05.2,02.0,04.8*08
0.123864:$GPGSV,3,1,11,07,48,101,46,08,58,170,42,11,23,075,45,13,25,021,47*70
0.123998:$GPGSV,3,2,11,15,01,216,00,17,34,345,46,19,18,137,36,25,33,080,49*7A
0.124673:$GPGSV,3,3,11,27,57,114,51,28,57,243,36,47,,,00,,,,*75
0.299331:$GPRMC,084241,A,2727.9619,S,15305.3551,E,012.6,008.6,231108,,,A*63
0.187968:$GPGGA,084242,2727.9574,S,15305.3560,E,1,08,02.0,-00010.6,M,039.4,M,,*74
0.124028:$GPGSA,A,3,07,08,11,13,17,25,27,28,,,,,05.2,02.0,04.8*08
0.127983:$GPGSV,3,1,11,07,48,101,47,08,58,170,41,11,23,075,45,13,25,021,47*72
0.188157:$GPGSV,3,2,11,15,01,216,00,17,34,345,42,19,18,137,40,25,33,080,48*7E
0.059857:$GPGSV,3,3,11,27,57,114,50,28,57,243,37,47,,,00,,,,*75
0.364000:$GPRMC,084242,A,2727.9574,S,15305.3560,E,016.9,011.9,231108,,,A*66
0.124007:$GPGGA,084243,2727.9517,S,15305.3572,E,1,08,02.0,-00010.5,M,039.4,M,,*70
0.124002:$GPGSA,A,3,07,08,11,13,17,25,27,28,,,,,05.2,02.0,04.8*08
0.128176:$GPGSV,3,1,11,07,48,101,46,08,58,170,41,11,23,075,40,13,25,021,45*74
0.183831:$GPGSV,3,2,11,15,01,216,00,17,34,345,47,19,18,137,38,25,33,080,48*74
0.127972:$GPGSV,3,3,11,27,57,114,51,28,57,243,45,47,,,00,,,,*71
0.300004:$GPRMC,084243,A,2727.9517,S,15305.3572,E,021.1,010.3,231108,,,A*66
0.124004:$GPGGA,084244,2727.9455,S,15305.3584,E,1,08,02.0,-00010.4,M,039.4,M,,*78
0.124018:$GPGSA,A,3,07,08,11,13,17,25,27,28,,,,,05.2,02.0,04.8*08
0.187998:$GPGSV,3,1,11,07,48,101,45,08,58,170,42,11,23,075,43,13,25,021,43*71
0.123987:$GPGSV,3,2,11,15,01,216,00,17,34,345,47,19,18,137,34,25,33,080,50*71
0.124779:$GPGSV,3,3,11,27,57,114,51,28,57,243,45,47,,,00,,,,*71
0.291285:$GPRMC,084244,A,2727.9455,S,15305.3584,E,022.7,010.0,231108,,,A*69
0.187938:$GPGGA,084245,2727.9390,S,15305.3598,E,1,08,02.0,-00010.3,M,039.4,M,,*7D
0.064007:$GPGSA,A,3,07,08,11,13,17,25,27,28,,,,,05.2,02.0,04.8*08
0.184004:$GPGSV,3,1,10,07,48,101,44,08,58,170,41,11,23,075,43,13,25,021,45*74
0.127991:$GPGSV,3,2,10,15,01,216,00,17,34,345,46,19,18,137,36,25,33,080,49*7B
0.124003:$GPGSV,3,3,10,27,57,114,52,28,57,243,42,,,,,,,,*77
0.316028:$GPRMC,084245,A,2727.9390,S,15305.3598,E,023.7,010.5,231108,,,A*6F
0.187963:$GPGGA,084246,2727.9326,S,15305.3611,E,1,08,02.0,-00010.4,M,039.4,M,,*76
0.128014:$GPGSA,A,3,07,08,11,13,17,25,27,28,,,,,05.2,02.0,04.8*08
0.123987:$GPGSV,3,1,10,07,48,101,45,08,58,170,41,11,23,075,41,13,25,021,45*77
0.123998:$GPGSV,3,2,10,15,01,216,00,17,34,345,45,19,18,137,38,25,33,080,48*77
0.128013:$GPGSV,3,3,10,27,57,114,52,28,57,243,39,,,,,,,,*7B
0.304043:$GPRMC,084246,A,2727.9326,S,15305.3611,E,023.6,010.5,231108,,,A*62
0.187954:$GPGGA,084247,2727.9254,S,15305.3625,E,1,08,02.0,-00010.5,M,039.4,M,,*75
0.124123:$GPGSA,A,3,07,08,11,13,17,25,27,28,,,,,05.2,02.0,04.8*08
0.127874:$GPGSV,3,1,10,07,48,101,47,08,58,170,43,11,23,075,45,13,25,021,45*73
0.123994:$GPGSV,3,2,10,15,01,216,00,17,34,345,46,19,18,137,34,25,33,080,48*78
0.128008:$GPGSV,3,3,10,27,57,114,51,28,57,243,35,,,,,,,,*74
0.303999:$GPRMC,084247,A,2727.9254,S,15305.3625,E,025.6,009.4,231108,,,A*6F
0.187980:$GPGGA,084248,2727.9180,S,15305.3639,E,1,08,02.0,-00010.7,M,039.4,M,,*7F
0.128156:$GPGSA,A,3,07,08,11,13,17,25,27,28,,,,,05.2,02.0,04.8*08
0.121279:$GPGSV,3,1,11,07,48,101,49,08,58,170,42,11,23,076,46,13,25,021,44*7C
0.126586:$GPGSV,3,2,11,15,01,216,00,17,34,345,46,19,18,137,35,25,33,080,47*77
0.123978:$GPGSV,3,3,11,27,57,114,52,28,57,243,36,47,,,00,,,,*76
0.304054:$GPRMC,084248,A,2727.9180,S,15305.3639,E,026.7,009.1,231108,,,A*60
0.187974:$GPGGA,084249,2727.9104,S,15305.3652,E,1,08,02.0,-00010.9,M,039.4,M,,*71
0.124000:$GPGSA,A,3,07,08,11,13,17,25,27,28,,,,,05.2,02.0,04.8*08
0.127988:$GPGSV,3,1,11,07,48,101,49,08,58,170,40,11,23,076,45,13,25,021,45*7C
0.184134:$GPGSV,3,2,11,15,01,216,00,17,34,345,45,19,18,137,36,25,33,080,48*78
0.063864:$GPGSV,3,3,11,27,57,114,52,28,57,243,34,47,,,00,,,,*74
0.360015:$GPRMC,084249,A,2727.9104,S,15305.3652,E,027.7,008.9,231108,,,A*68
0.123984:$GPGGA,084250,2727.9023,S,15305.3668,E,1,08,02.0,-00011.0,M,039.4,M,,*7C
0.124000:$GPGSA,A,3,07,08,11,13,17,25,27,28,,,,,05.2,02.0,04.8*08
0.124002:$GPGSV,3,1,11,07,48,101,48,08,58,170,40,11,23,076,42,13,25,021,44*7B
0.188011:$GPGSV,3,2,11,15,01,216,00,17,34,345,46,19,18,137,36,25,33,080,48*7B
0.128028:$GPGSV,3,3,11,27,57,114,52,28,57,243,34,47,,,00,,,,*74
0.288102:$GPRMC,084250,A,2727.9023,S,15305.3668,E,028.9,009.5,231108,,,A*61
0.127865:$GPGGA,084251,2727.8945,S,15305.3683,E,1,08,02.0,-00011.3,M,039.4,M,,*73
0.123952:$GPGSA,A,3,07,08,11,13,17,25,27,28,,,,,05.2,02.0,04.8*08
